VisitId,CustomerName,Address,Latitude,Longitude,Category,ServiceMinutes,WindowStart,WindowEnd,WindowStrict,Priority,AppointmentRequired,WorkType,BuildingGroupId,AccessNote,HazardNote,ContactPhone
V001,佐藤邸,山梨県甲府市武田3-2-1,35.6790,138.5760,一般,,,,,中,false,定期,,,,055-100-0001
V002,鈴木邸,山梨県甲府市朝気1-3-2,35.6585,138.5860,一般,,09:00,12:00,希望,中,false,定期,,,,055-100-0002
V003,中央ビル管理室,山梨県甲府市中央4-5-1,35.6620,138.5720,業務,40,,,,高,true,故障,B-CHUO,駐車場は地下P,,055-100-0003
V004,田中邸,山梨県甲府市湯村2-4-3,35.6720,138.5560,一般,,,,,低,false,定期,,,,055-100-0004
V005,国母商会,山梨県甲府市国母5-1-1,35.6380,138.5450,業務,30,13:00,15:00,希望,中,false,交換,,立会い必要,,055-100-0005
V006,高橋邸,山梨県甲府市善光寺3-3-3,35.6540,138.5950,一般,,,,,中,false,定期,,,犬注意,055-100-0006
V007,北口テナント,山梨県甲府市北口2-1-1,35.6690,138.5680,業務,,,,,中,true,定期,,エレベーターなし4階,,055-100-0007
V008,伊藤邸,山梨県甲府市大里町2-2-2,35.6280,138.5600,一般,25,,,,低,false,定期,,,,055-100-0008
